[
  {
    "name": "Tudor Boutique Westime",
    "address": "7007 Friars Road, Fashion Valley",
    "city": "San Diego",
    "state": "CA",
    "zip_code": "92108",
    "country": "United States",
    "phone": "+16197808888",
    "website": null,
    "latitude": null,
    "longitude": null,
    "detail_url": "https://www.tudorwatch.com/en/retailers/details/unitedstates",
    "retailer_type": "Tudor Boutique Edition"
  },
  {
    "name": "Tudor Boutique CH Premier",
    "address": "2855 Stevens Creek Boulevard, Valley Fair",
    "city": "Santa Clara",
    "state": "CA",
    "zip_code": "95050",
    "country": "United States",
    "phone": "+14083802392",
    "website": null,
    "latitude": null,
    "longitude": null,
    "detail_url": "https://www.tudorwatch.com/en/retailers/details/unitedstates",
    "retailer_type": "Tudor Boutique Edition"
  },
  {
    "name": "Tudor Boutique Bucherer 1888",
    "address": "3500 Las Vegas Boulevard South, Suite #0G22A",
    "city": "Las Vegas",
    "state": "NV",
    "zip_code": "89109",
    "country": "United States",
    "phone": "+17253030650",
    "website": null,
    "latitude": null,
    "longitude": null,
    "detail_url": "https://www.tudorwatch.com/en/retailers/details/unitedstates",
    "retailer_type": "Tudor Boutique Edition"
  },
  {
    "name": "Tudor Boutique Bucherer 1888",
    "address": "3333 Bristol Street, Suite #2017",
    "city": "Costa Mesa",
    "state": "CA",
    "zip_code": "92626",
    "country": "United States",
    "phone": "+16574676264",
    "website": null,
    "latitude": null,
    "longitude": null,
    "detail_url": "https://www.tudorwatch.com/en/retailers/details/unitedstates",
    "retailer_type": "Tudor Boutique Edition"
  },
  {
    "name": "Tudor Boutique LV Luxury",
    "address": "3327 Las Vegas Boulevard South, The Palazzo",
    "city": "Las Vegas",
    "state": "NV",
    "zip_code": "89109",
    "country": "United States",
    "phone": null,
    "website": null,
    "latitude": null,
    "longitude": null,
    "detail_url": "https://www.tudorwatch.com/en/retailers/details/unitedstates",
    "retailer_type": "Tudor Boutique Edition"
  },
  {
    "name": "Tudor Boutique Tapper's",
    "address": "2800 West Big Beaver Road, Suite 230",
    "city": "Troy",
    "state": "MI",
    "zip_code": "48084",
    "country": "United States",
    "phone": null,
    "website": null,
    "latitude": null,
    "longitude": null,
    "detail_url": "https://www.tudorwatch.com/en/retailers/details/unitedstates",
    "retailer_type": "Tudor Boutique Edition"
  },
  {
    "name": "Tudor Boutique Bucherer 1888",
    "address": "29-35 9th Avenue",
    "city": "New York",
    "state": "NY",
    "zip_code": "10014",
    "country": "United States",
    "phone": "+13322441620",
    "website": null,
    "latitude": null,
    "longitude": null,
    "detail_url": "https://www.tudorwatch.com/en/retailers/details/unitedstates",
    "retailer_type": "Tudor Boutique Edition"
  },
  {
    "name": "Tudor Boutique Mayors",
    "address": "3393 Peachtree Road NE, Suite #3038D",
    "city": "Atlanta",
    "state": "GA",
    "zip_code": "30326",
    "country": "United States",
    "phone": "+14047361406",
    "website": null,
    "latitude": null,
    "longitude": null,
    "detail_url": "https://www.tudorwatch.com/en/retailers/details/unitedstates",
    "retailer_type": "Tudor Boutique Edition"
  },
  {
    "name": "Tudor Boutique Zadok",
    "address": "11501 Century Oaks Terrace, Suite 141",
    "city": "Austin",
    "state": "TX",
    "zip_code": "11501",
    "country": "United States",
    "phone": null,
    "website": null,
    "latitude": null,
    "longitude": null,
    "detail_url": "https://www.tudorwatch.com/en/retailers/details/unitedstates",
    "retailer_type": "Tudor Boutique Edition"
  },
  {
    "name": "Tudor Boutique Mayors Orlando",
    "address": "4200 Conroy Road, The Mall at Millenia",
    "city": "Orlando",
    "state": "FL",
    "zip_code": "32839",
    "country": "United States",
    "phone": "+14078593116",
    "website": null,
    "latitude": null,
    "longitude": null,
    "detail_url": "https://www.tudorwatch.com/en/retailers/details/unitedstates",
    "retailer_type": "Tudor Boutique Edition"
  },
  {
    "name": "Tudor Boutique Lenkersdorfer",
    "address": "8053 Tysons Corner Center",
    "city": "McLean",
    "state": "VA",
    "zip_code": "22102",
    "country": "United States",
    "phone": "+17039910902",
    "website": null,
    "latitude": null,
    "longitude": null,
    "detail_url": "https://www.tudorwatch.com/en/retailers/details/unitedstates",
    "retailer_type": "Tudor Boutique Edition"
  },
  {
    "name": "Tudor Boutique The 1916 Company",
    "address": "3000 East 1st Avenue, Cherry Creek Shopping Center",
    "city": "Denver",
    "state": "CO",
    "zip_code": "80206",
    "country": "United States",
    "phone": "+13033334446",
    "website": null,
    "latitude": null,
    "longitude": null,
    "detail_url": "https://www.tudorwatch.com/en/retailers/details/unitedstates",
    "retailer_type": "Tudor Boutique Edition"
  },
  {
    "name": "Tudor Boutique Fink's",
    "address": "4400 Sharon Road, South Park Mall",
    "city": "Charlotte",
    "state": "NC",
    "zip_code": "28211",
    "country": "United States",
    "phone": "+17045207770",
    "website": null,
    "latitude": null,
    "longitude": null,
    "detail_url": "https://www.tudorwatch.com/en/retailers/details/unitedstates",
    "retailer_type": "Tudor Boutique Edition"
  },
  {
    "name": "Tudor Boutique Eiseman Jewelers",
    "address": "8687 North Central Expressway, NorthPark Center",
    "city": "Dallas",
    "state": "TX",
    "zip_code": "75225",
    "country": "United States",
    "phone": "+12143696100",
    "website": null,
    "latitude": null,
    "longitude": null,
    "detail_url": "https://www.tudorwatch.com/en/retailers/details/unitedstates",
    "retailer_type": "Tudor Boutique Edition"
  },
  {
    "name": "Tudor Boutique CD Peacock",
    "address": "298 Oak Brook Center",
    "city": "Oak Brook",
    "state": "IL",
    "zip_code": "60523",
    "country": "United States",
    "phone": "+16305715355",
    "website": null,
    "latitude": null,
    "longitude": null,
    "detail_url": "https://www.tudorwatch.com/en/retailers/details/unitedstates",
    "retailer_type": "Tudor Boutique Edition"
  },
  {
    "name": "BEN BRIDGE JEWELER RANCHO CUCAMONGA",
    "address": "8009 Day Creek Boulevard, Victoria Gardens",
    "city": "Rancho Cucamonga",
    "state": "CA",
    "zip_code": "91739",
    "country": "United States",
    "phone": "+19513520511",
    "website": null,
    "latitude": null,
    "longitude": null,
    "detail_url": "https://www.tudorwatch.com/en/retailers/details/unitedstates",
    "retailer_type": "Official Retailer"
  },
  {
    "name": "Hamra Jewelers",
    "address": "15620 North Scottsdale Road",
    "city": "Scottsdale",
    "state": "AZ",
    "zip_code": "15620",
    "country": "United States",
    "phone": "+14809465110",
    "website": null,
    "latitude": null,
    "longitude": null,
    "detail_url": "https://www.tudorwatch.com/en/retailers/details/unitedstates",
    "retailer_type": "Official Retailer"
  },
  {
    "name": "Tudor Boutique Westime",
    "address": "10250 Santa Monica Boulevard, Suite 1937",
    "city": "Los Angeles",
    "state": "CA",
    "zip_code": "10250",
    "country": "United States",
    "phone": "+13104755555",
    "website": null,
    "latitude": null,
    "longitude": null,
    "detail_url": "https://www.tudorwatch.com/en/retailers/details/unitedstates",
    "retailer_type": "Tudor Boutique Edition"
  },
  {
    "name": "Fink's Jewelers",
    "address": "16745 Birkdale Commons Parkway, Unit 2",
    "city": "Huntersville",
    "state": "NC",
    "zip_code": "16745",
    "country": "United States",
    "phone": "+17049274888",
    "website": null,
    "latitude": null,
    "longitude": null,
    "detail_url": "https://www.tudorwatch.com/en/retailers/details/unitedstates",
    "retailer_type": "Official Retailer"
  },
  {
    "name": "Henne Jewelers",
    "address": "5501 Walnut Street",
    "city": "Pittsburgh",
    "state": "PA",
    "zip_code": "15232",
    "country": "United States",
    "phone": "+14126820226",
    "website": null,
    "latitude": null,
    "longitude": null,
    "detail_url": "https://www.tudorwatch.com/en/retailers/details/unitedstates",
    "retailer_type": "Official Retailer"
  },
  {
    "name": "Deutsch Jewelers Houston",
    "address": "3747 Westheimer Road",
    "city": "Houston",
    "state": "TX",
    "zip_code": "77027",
    "country": "United States",
    "phone": "+17136277787",
    "website": null,
    "latitude": null,
    "longitude": null,
    "detail_url": "https://www.tudorwatch.com/en/retailers/details/unitedstates",
    "retailer_type": "Official Retailer"
  },
  {
    "name": "Hing Wa Lee Jewelers",
    "address": "1569 South Fairway Drive Suite #128",
    "city": "Walnut",
    "state": "CA",
    "zip_code": "91789",
    "country": "United States",
    "phone": "+19098318888",
    "website": null,
    "latitude": null,
    "longitude": null,
    "detail_url": "https://www.tudorwatch.com/en/retailers/details/unitedstates",
    "retailer_type": "Official Retailer"
  },
  {
    "name": "DEUTSCH & DEUTSCH MCALLEN",
    "address": "2109 South 10th Street, Suite 20",
    "city": "McAllen",
    "state": "TX",
    "zip_code": "28503",
    "country": "United States",
    "phone": null,
    "website": null,
    "latitude": null,
    "longitude": null,
    "detail_url": "https://www.tudorwatch.com/en/retailers/details/unitedstates",
    "retailer_type": "Official Retailer"
  },
  {
    "name": "Coffin & Trout Jewelers",
    "address": "7131 West Ray Road, Casa Paloma Plaza",
    "city": "Chandler",
    "state": "AZ",
    "zip_code": "85226",
    "country": "United States",
    "phone": "+14807631300",
    "website": null,
    "latitude": null,
    "longitude": null,
    "detail_url": "https://www.tudorwatch.com/en/retailers/details/unitedstates",
    "retailer_type": "Official Retailer"
  },
  {
    "name": "Brinker's Jewelers",
    "address": "111 South Green River Road",
    "city": "Evansville",
    "state": "IN",
    "zip_code": "47715",
    "country": "United States",
    "phone": "+18124760651",
    "website": null,
    "latitude": null,
    "longitude": null,
    "detail_url": "https://www.tudorwatch.com/en/retailers/details/unitedstates",
    "retailer_type": "Official Retailer"
  },
  {
    "name": "Hal Davis Jewelers",
    "address": "921 West Jefferson Street",
    "city": "Boise",
    "state": "ID",
    "zip_code": "83702",
    "country": "United States",
    "phone": "+12083436151",
    "website": null,
    "latitude": null,
    "longitude": null,
    "detail_url": "https://www.tudorwatch.com/en/retailers/details/unitedstates",
    "retailer_type": "Official Retailer"
  },
  {
    "name": "Kerns Fine Jewelry",
    "address": "214 Lorton Avenue",
    "city": "Burlingame",
    "state": "CA",
    "zip_code": "94010",
    "country": "United States",
    "phone": "+16503487557",
    "website": null,
    "latitude": null,
    "longitude": null,
    "detail_url": "https://www.tudorwatch.com/en/retailers/details/unitedstates",
    "retailer_type": "Official Retailer"
  },
  {
    "name": "Betteridge Jewelers",
    "address": "239 Greenwich Avenue",
    "city": "Greenwich",
    "state": "CT",
    "zip_code": "06830",
    "country": "United States",
    "phone": "+12038690124",
    "website": null,
    "latitude": null,
    "longitude": null,
    "detail_url": "https://www.tudorwatch.com/en/retailers/details/unitedstates",
    "retailer_type": "Official Retailer"
  },
  {
    "name": "DEUTSCH & DEUTSCH LAREDO",
    "address": "2101 East Del Mar Boulevard",
    "city": "Laredo",
    "state": "TX",
    "zip_code": "78041",
    "country": "United States",
    "phone": null,
    "website": null,
    "latitude": null,
    "longitude": null,
    "detail_url": "https://www.tudorwatch.com/en/retailers/details/unitedstates",
    "retailer_type": "Official Retailer"
  },
  {
    "name": "Ben Bridge Jeweler",
    "address": "143 Bellevue Square",
    "city": "Bellevue",
    "state": "WA",
    "zip_code": "98004",
    "country": "United States",
    "phone": "+14254549227",
    "website": null,
    "latitude": null,
    "longitude": null,
    "detail_url": "https://www.tudorwatch.com/en/retailers/details/unitedstates",
    "retailer_type": "Official Retailer"
  },
  {
    "name": "Heller Jewelers",
    "address": "6000 Bollinger Canyon Road, City Center Bishop Ranch",
    "city": "San Ramon",
    "state": "CA",
    "zip_code": "94583",
    "country": "United States",
    "phone": "+19259040200",
    "website": null,
    "latitude": null,
    "longitude": null,
    "detail_url": "https://www.tudorwatch.com/en/retailers/details/unitedstates",
    "retailer_type": "Official Retailer"
  },
  {
    "name": "Bucherer 1888 The Westchester",
    "address": "1888 The Westchester",
    "city": "White Plains",
    "state": "NY",
    "zip_code": "10601",
    "country": "United States",
    "phone": "+19143972301",
    "website": null,
    "latitude": null,
    "longitude": null,
    "detail_url": "https://www.tudorwatch.com/en/retailers/details/unitedstates",
    "retailer_type": "Official Retailer"
  },
  {
    "name": "Diamond Cellar",
    "address": "6280 Sawmill Road",
    "city": "Dublin",
    "state": "OH",
    "zip_code": "43017",
    "country": "United States",
    "phone": "+16143364545",
    "website": null,
    "latitude": null,
    "longitude": null,
    "detail_url": "https://www.tudorwatch.com/en/retailers/details/unitedstates",
    "retailer_type": "Official Retailer"
  },
  {
    "name": "Bhindi Jewelers",
    "address": "2213 Galleria Way, Glendale Galleria",
    "city": "Glendale",
    "state": "CA",
    "zip_code": "91210",
    "country": "United States",
    "phone": "+18182438755",
    "website": null,
    "latitude": null,
    "longitude": null,
    "detail_url": "https://www.tudorwatch.com/en/retailers/details/unitedstates",
    "retailer_type": "Official Retailer"
  },
  {
    "name": "James & Sons",
    "address": "14205 South LaGrange Road",
    "city": "Orland Park",
    "state": "IL",
    "zip_code": "14205",
    "country": "United States",
    "phone": "+17082260800",
    "website": null,
    "latitude": null,
    "longitude": null,
    "detail_url": "https://www.tudorwatch.com/en/retailers/details/unitedstates",
    "retailer_type": "Official Retailer"
  },
  {
    "name": "Jewelers Trade Shop",
    "address": "26 Palafox Place",
    "city": "Pensacola",
    "state": "FL",
    "zip_code": "32502",
    "country": "United States",
    "phone": "+18504324433",
    "website": null,
    "latitude": null,
    "longitude": null,
    "detail_url": "https://www.tudorwatch.com/en/retailers/details/unitedstates",
    "retailer_type": "Official Retailer"
  },
  {
    "name": "Jack Lewis Jewelers",
    "address": "3011 Galena Road",
    "city": "Bloomington",
    "state": "IL",
    "zip_code": "61704",
    "country": "United States",
    "phone": "+13096630538",
    "website": null,
    "latitude": null,
    "longitude": null,
    "detail_url": "https://www.tudorwatch.com/en/retailers/details/unitedstates",
    "retailer_type": "Official Retailer"
  },
  {
    "name": "Hing Wa Lee Jewelers",
    "address": "1635 South Del Mar Avenue",
    "city": "San Gabriel",
    "state": "CA",
    "zip_code": "91776",
    "country": "United States",
    "phone": "+16264562222",
    "website": null,
    "latitude": null,
    "longitude": null,
    "detail_url": "https://www.tudorwatch.com/en/retailers/details/unitedstates",
    "retailer_type": "Official Retailer"
  },
  {
    "name": "David Gardner's",
    "address": "911 University Drive East",
    "city": "College Station",
    "state": "TX",
    "zip_code": "77840",
    "country": "United States",
    "phone": "+19792680800",
    "website": null,
    "latitude": null,
    "longitude": null,
    "detail_url": "https://www.tudorwatch.com/en/retailers/details/unitedstates",
    "retailer_type": "Official Retailer"
  },
  {
    "name": "J.R. Dunn Jewelers",
    "address": "4210 North Federal Highway",
    "city": "Lighthouse Point",
    "state": "FL",
    "zip_code": "33064",
    "country": "United States",
    "phone": "+19547825000",
    "website": null,
    "latitude": null,
    "longitude": null,
    "detail_url": "https://www.tudorwatch.com/en/retailers/details/unitedstates",
    "retailer_type": "Official Retailer"
  },
  {
    "name": "Fink's Jewelers",
    "address": "1612 Laskin Road, Suite 776",
    "city": "Virginia Beach",
    "state": "VA",
    "zip_code": "23451",
    "country": "United States",
    "phone": "+17576401132",
    "website": null,
    "latitude": null,
    "longitude": null,
    "detail_url": "https://www.tudorwatch.com/en/retailers/details/unitedstates",
    "retailer_type": "Official Retailer"
  },
  {
    "name": "Lee Michaels Fine Jewelry",
    "address": "2201 Q Street NE, ABQ Uptown",
    "city": "Albuquerque",
    "state": "NM",
    "zip_code": "87110",
    "country": "United States",
    "phone": "+15052084500",
    "website": null,
    "latitude": null,
    "longitude": null,
    "detail_url": "https://www.tudorwatch.com/en/retailers/details/unitedstates",
    "retailer_type": "Official Retailer"
  },
  {
    "name": "Anton's Fine Jewelry",
    "address": "10675 Coursey Boulevard",
    "city": "Baton Rouge",
    "state": "LA",
    "zip_code": "10675",
    "country": "United States",
    "phone": "+12252911919",
    "website": null,
    "latitude": null,
    "longitude": null,
    "detail_url": "https://www.tudorwatch.com/en/retailers/details/unitedstates",
    "retailer_type": "Official Retailer"
  },
  {
    "name": "Lee Michaels Fine Jewelry",
    "address": "15900 La Cantera Pkwy, The Shops at La Cantera",
    "city": "San Antonio",
    "state": "TX",
    "zip_code": "15900",
    "country": "United States",
    "phone": "+12106999494",
    "website": null,
    "latitude": null,
    "longitude": null,
    "detail_url": "https://www.tudorwatch.com/en/retailers/details/unitedstates",
    "retailer_type": "Official Retailer"
  },
  {
    "name": "Brown & Company Jewelers",
    "address": "674 Holcomb Bridge Road",
    "city": "Roswell",
    "state": "GA",
    "zip_code": "30076",
    "country": "United States",
    "phone": "+17709931080",
    "website": null,
    "latitude": null,
    "longitude": null,
    "detail_url": "https://www.tudorwatch.com/en/retailers/details/unitedstates",
    "retailer_type": "Official Retailer"
  },
  {
    "name": "Diamond Cellar",
    "address": "1523 East 15th Street",
    "city": "Tulsa",
    "state": "OK",
    "zip_code": "74120",
    "country": "United States",
    "phone": "+19187491700",
    "website": null,
    "latitude": null,
    "longitude": null,
    "detail_url": "https://www.tudorwatch.com/en/retailers/details/unitedstates",
    "retailer_type": "Official Retailer"
  },
  {
    "name": "Gerald Peters",
    "address": "1461 Richmond Road",
    "city": "Staten Island",
    "state": "NY",
    "zip_code": "10304",
    "country": "United States",
    "phone": "+17184774000",
    "website": null,
    "latitude": null,
    "longitude": null,
    "detail_url": "https://www.tudorwatch.com/en/retailers/details/unitedstates",
    "retailer_type": "Official Retailer"
  },
  {
    "name": "Bromberg & Company",
    "address": "131 Summit Boulevard",
    "city": "Birmingham",
    "state": "AL",
    "zip_code": "35243",
    "country": "United States",
    "phone": "+12059691776",
    "website": null,
    "latitude": null,
    "longitude": null,
    "detail_url": "https://www.tudorwatch.com/en/retailers/details/unitedstates",
    "retailer_type": "Official Retailer"
  },
  {
    "name": "Bucherer 1888 Bal Harbour Shops",
    "address": "9700 Collins Avenue, Bal Harbour Shops",
    "city": "Bal Harbour",
    "state": "FL",
    "zip_code": "33154",
    "country": "United States",
    "phone": "+13058664312",
    "website": null,
    "latitude": null,
    "longitude": null,
    "detail_url": "https://www.tudorwatch.com/en/retailers/details/unitedstates",
    "retailer_type": "Official Retailer"
  },
  {
    "name": "Brent L. Miller Jewelers & Goldsmiths",
    "address": "",
    "city": "Lancaster",
    "state": "PA",
    "zip_code": "17601",
    "country": "United States",
    "phone": "+17175695450",
    "website": null,
    "latitude": null,
    "longitude": null,
    "detail_url": "https://www.tudorwatch.com/en/retailers/details/unitedstates",
    "retailer_type": "Official Retailer"
  },
  {
    "name": "Bucherer 1888 TimeMachine",
    "address": "12 East 57th Street",
    "city": "New York",
    "state": "NY",
    "zip_code": "10022",
    "country": "United States",
    "phone": "+12127587300",
    "website": null,
    "latitude": null,
    "longitude": null,
    "detail_url": "https://www.tudorwatch.com/en/retailers/details/unitedstates",
    "retailer_type": "Official Retailer"
  },
  {
    "name": "Hamilton Jewelers",
    "address": "3101 PGA Boulevard",
    "city": "Palm Beach Gardens",
    "state": "FL",
    "zip_code": "33410",
    "country": "United States",
    "phone": "+15617753600",
    "website": null,
    "latitude": null,
    "longitude": null,
    "detail_url": "https://www.tudorwatch.com/en/retailers/details/unitedstates",
    "retailer_type": "Official Retailer"
  },
  {
    "name": "Lee Michaels Fine Jewelry",
    "address": "940 Highland Colony Parkway",
    "city": "Ridgeland",
    "state": "MS",
    "zip_code": "39157",
    "country": "United States",
    "phone": "+16019576100",
    "website": null,
    "latitude": null,
    "longitude": null,
    "detail_url": "https://www.tudorwatch.com/en/retailers/details/unitedstates",
    "retailer_type": "Official Retailer"
  },
  {
    "name": "Benari Jewelers",
    "address": "100 Squire Drive",
    "city": "Newtown Square",
    "state": "PA",
    "zip_code": "19073",
    "country": "United States",
    "phone": "+16103551800",
    "website": null,
    "latitude": null,
    "longitude": null,
    "detail_url": "https://www.tudorwatch.com/en/retailers/details/unitedstates",
    "retailer_type": "Official Retailer"
  },
  {
    "name": "Bucherer 1888 Copley Place",
    "address": "1888 Copley Place",
    "city": "Boston",
    "state": "MA",
    "zip_code": "02116",
    "country": "United States",
    "phone": "+16172678463",
    "website": null,
    "latitude": null,
    "longitude": null,
    "detail_url": "https://www.tudorwatch.com/en/retailers/details/unitedstates",
    "retailer_type": "Official Retailer"
  },
  {
    "name": "Hartgers Jewelers",
    "address": "699 Wyckoff Avenue",
    "city": "Wyckoff",
    "state": "NJ",
    "zip_code": "07481",
    "country": "United States",
    "phone": "+12018910044",
    "website": null,
    "latitude": null,
    "longitude": null,
    "detail_url": "https://www.tudorwatch.com/en/retailers/details/unitedstates",
    "retailer_type": "Official Retailer"
  },
  {
    "name": "Bucherer 1888 Pentagon City",
    "address": "1100 South Hayes St",
    "city": "Arlington",
    "state": "VA",
    "zip_code": "22202",
    "country": "United States",
    "phone": "+17034148463",
    "website": null,
    "latitude": null,
    "longitude": null,
    "detail_url": "https://www.tudorwatch.com/en/retailers/details/unitedstates",
    "retailer_type": "Official Retailer"
  },
  {
    "name": "Brockhaus Jewelers",
    "address": "1905 24th Avenue NW",
    "city": "Norman",
    "state": "OK",
    "zip_code": "73069",
    "country": "United States",
    "phone": "+14053498172",
    "website": null,
    "latitude": null,
    "longitude": null,
    "detail_url": "https://www.tudorwatch.com/en/retailers/details/unitedstates",
    "retailer_type": "Official Retailer"
  },
  {
    "name": "Brown & Company",
    "address": "3005 Bolling Way",
    "city": "Atlanta",
    "state": "GA",
    "zip_code": "30305",
    "country": "United States",
    "phone": "+14049149800",
    "website": null,
    "latitude": null,
    "longitude": null,
    "detail_url": "https://www.tudorwatch.com/en/retailers/details/unitedstates",
    "retailer_type": "Official Retailer"
  },
  {
    "name": "Blakeman's Fine Jewelry",
    "address": "3202 Pinnacle Hills Parkway",
    "city": "Rogers",
    "state": "AR",
    "zip_code": "72758",
    "country": "United States",
    "phone": "+14795450088",
    "website": null,
    "latitude": null,
    "longitude": null,
    "detail_url": "https://www.tudorwatch.com/en/retailers/details/unitedstates",
    "retailer_type": "Official Retailer"
  },
  {
    "name": "H. L. Gross & Bro.",
    "address": "840 Franklin Avenue",
    "city": "Garden City",
    "state": "NY",
    "zip_code": "11530",
    "country": "United States",
    "phone": "+15167476666",
    "website": null,
    "latitude": null,
    "longitude": null,
    "detail_url": "https://www.tudorwatch.com/en/retailers/details/unitedstates",
    "retailer_type": "Official Retailer"
  },
  {
    "name": "Hamilton Jewelers",
    "address": "92 Nassau Street",
    "city": "Princeton",
    "state": "NJ",
    "zip_code": "08542",
    "country": "United States",
    "phone": "+16098834200",
    "website": null,
    "latitude": null,
    "longitude": null,
    "detail_url": "https://www.tudorwatch.com/en/retailers/details/unitedstates",
    "retailer_type": "Official Retailer"
  },
  {
    "name": "Aucoin-Hart Jewelers",
    "address": "1525 Metairie Road",
    "city": "Metairie",
    "state": "LA",
    "zip_code": "70005",
    "country": "United States",
    "phone": "+15049349999",
    "website": null,
    "latitude": null,
    "longitude": null,
    "detail_url": "https://www.tudorwatch.com/en/retailers/details/unitedstates",
    "retailer_type": "Official Retailer"
  },
  {
    "name": "B.C. Clark",
    "address": "101 Park Avenue",
    "city": "Oklahoma City",
    "state": "OK",
    "zip_code": "73102",
    "country": "United States",
    "phone": "+14052328806",
    "website": null,
    "latitude": null,
    "longitude": null,
    "detail_url": "https://www.tudorwatch.com/en/retailers/details/unitedstates",
    "retailer_type": "Official Retailer"
  },
  {
    "name": "Bucherer 1888 Madison Avenue",
    "address": "1888 Madison Avenue",
    "city": "New York",
    "state": "NY",
    "zip_code": "10022",
    "country": "United States",
    "phone": "+12127585830",
    "website": null,
    "latitude": null,
    "longitude": null,
    "detail_url": "https://www.tudorwatch.com/en/retailers/details/unitedstates",
    "retailer_type": "Official Retailer"
  },
  {
    "name": "Fink's Jewelers",
    "address": "3545 Electric Road, at Colonial Avenue",
    "city": "Roanoke",
    "state": "VA",
    "zip_code": "24018",
    "country": "United States",
    "phone": "+15403422991",
    "website": null,
    "latitude": null,
    "longitude": null,
    "detail_url": "https://www.tudorwatch.com/en/retailers/details/unitedstates",
    "retailer_type": "Official Retailer"
  },
  {
    "name": "De Vons Jewelers",
    "address": "13981 South Virginia Street #402A",
    "city": "Reno",
    "state": "NV",
    "zip_code": "13981",
    "country": "United States",
    "phone": "+17758531597",
    "website": null,
    "latitude": null,
    "longitude": null,
    "detail_url": "https://www.tudorwatch.com/en/retailers/details/unitedstates",
    "retailer_type": "Official Retailer"
  },
  {
    "name": "Bucherer 1888 TimeDome",
    "address": "3500 Las Vegas Blvd South, The Forum Shops",
    "city": "Las Vegas",
    "state": "NV",
    "zip_code": "89109",
    "country": "United States",
    "phone": "+17027328463",
    "website": null,
    "latitude": null,
    "longitude": null,
    "detail_url": "https://www.tudorwatch.com/en/retailers/details/unitedstates",
    "retailer_type": "Official Retailer"
  },
  {
    "name": "Kirk Jewelers",
    "address": "701 South Miami Ave, Brickell City Centre",
    "city": "Miami",
    "state": "FL",
    "zip_code": "33131",
    "country": "United States",
    "phone": "+13051371321",
    "website": null,
    "latitude": null,
    "longitude": null,
    "detail_url": "https://www.tudorwatch.com/en/retailers/details/unitedstates",
    "retailer_type": "Official Retailer"
  },
  {
    "name": "Ben Bridge Jeweler",
    "address": "81 Westfield Southcenter",
    "city": "Tukwila",
    "state": "WA",
    "zip_code": "98188",
    "country": "United States",
    "phone": "+12062466227",
    "website": null,
    "latitude": null,
    "longitude": null,
    "detail_url": "https://www.tudorwatch.com/en/retailers/details/unitedstates",
    "retailer_type": "Official Retailer"
  },
  {
    "name": "B.C. Clark",
    "address": "5801 NW Grand Boulevard",
    "city": "Oklahoma City",
    "state": "OK",
    "zip_code": "73118",
    "country": "United States",
    "phone": "+14058401441",
    "website": null,
    "latitude": null,
    "longitude": null,
    "detail_url": "https://www.tudorwatch.com/en/retailers/details/unitedstates",
    "retailer_type": "Official Retailer"
  },
  {
    "name": "A.R. Morris",
    "address": "",
    "city": "Greenville",
    "state": "DE",
    "zip_code": "19807",
    "country": "United States",
    "phone": "+13027774367",
    "website": null,
    "latitude": null,
    "longitude": null,
    "detail_url": "https://www.tudorwatch.com/en/retailers/details/unitedstates",
    "retailer_type": "Official Retailer"
  },
  {
    "name": "Lee Michaels Fine Jewelry",
    "address": "3020 North Causeway Boulevard",
    "city": "Metairie",
    "state": "LA",
    "zip_code": "70002",
    "country": "United States",
    "phone": "+15048320000",
    "website": null,
    "latitude": null,
    "longitude": null,
    "detail_url": "https://www.tudorwatch.com/en/retailers/details/unitedstates",
    "retailer_type": "Official Retailer"
  },
  {
    "name": "Benari Jewelers",
    "address": "299 Main Street",
    "city": "Exton",
    "state": "PA",
    "zip_code": "19341",
    "country": "United States",
    "phone": "+16103638450",
    "website": null,
    "latitude": null,
    "longitude": null,
    "detail_url": "https://www.tudorwatch.com/en/retailers/details/unitedstates",
    "retailer_type": "Official Retailer"
  },
  {
    "name": "Alson Jewelers",
    "address": "28149 Chagrin Boulevard",
    "city": "Cleveland",
    "state": "OH",
    "zip_code": "28149",
    "country": "United States",
    "phone": "+12164646767",
    "website": null,
    "latitude": null,
    "longitude": null,
    "detail_url": "https://www.tudorwatch.com/en/retailers/details/unitedstates",
    "retailer_type": "Official Retailer"
  },
  {
    "name": "Diamond Cellar",
    "address": "3960 New Bond Street",
    "city": "Columbus",
    "state": "OH",
    "zip_code": "43219",
    "country": "United States",
    "phone": "+16149236633",
    "website": null,
    "latitude": null,
    "longitude": null,
    "detail_url": "https://www.tudorwatch.com/en/retailers/details/unitedstates",
    "retailer_type": "Official Retailer"
  },
  {
    "name": "Gruno's Diamonds",
    "address": "7311 West Towne Way",
    "city": "Madison",
    "state": "WI",
    "zip_code": "53719",
    "country": "United States",
    "phone": "+16081291525",
    "website": null,
    "latitude": null,
    "longitude": null,
    "detail_url": "https://www.tudorwatch.com/en/retailers/details/unitedstates",
    "retailer_type": "Official Retailer"
  },
  {
    "name": "Bucherer 1888 Waterside Shops",
    "address": "",
    "city": "Naples",
    "state": "FL",
    "zip_code": "34108",
    "country": "United States",
    "phone": "+12391591342",
    "website": null,
    "latitude": null,
    "longitude": null,
    "detail_url": "https://www.tudorwatch.com/en/retailers/details/unitedstates",
    "retailer_type": "Official Retailer"
  },
  {
    "name": "Ben Bridge Jeweler",
    "address": "8505 Park Meadows Center Drive, Park Meadows Center",
    "city": "Lone Tree",
    "state": "CO",
    "zip_code": "80124",
    "country": "United States",
    "phone": "+13037061814",
    "website": null,
    "latitude": null,
    "longitude": null,
    "detail_url": "https://www.tudorwatch.com/en/retailers/details/unitedstates",
    "retailer_type": "Official Retailer"
  },
  {
    "name": "Bromberg & Company",
    "address": "2800 Cahaba Road",
    "city": "Mountain Brook",
    "state": "AL",
    "zip_code": "35223",
    "country": "United States",
    "phone": "+12058713276",
    "website": null,
    "latitude": null,
    "longitude": null,
    "detail_url": "https://www.tudorwatch.com/en/retailers/details/unitedstates",
    "retailer_type": "Official Retailer"
  },
  {
    "name": "Ben Bridge Jeweler",
    "address": "4505 La Jolla Village Drive, Westfield UTC",
    "city": "San Diego",
    "state": "CA",
    "zip_code": "92122",
    "country": "United States",
    "phone": "+18584539996",
    "website": null,
    "latitude": null,
    "longitude": null,
    "detail_url": "https://www.tudorwatch.com/en/retailers/details/unitedstates",
    "retailer_type": "Official Retailer"
  },
  {
    "name": "DEUTSCH & DEUTSCH EL PASO",
    "address": "8889 Gateway Boulevard West, Suite 1840",
    "city": "El Paso",
    "state": "TX",
    "zip_code": "79925",
    "country": "United States",
    "phone": null,
    "website": null,
    "latitude": null,
    "longitude": null,
    "detail_url": "https://www.tudorwatch.com/en/retailers/details/unitedstates",
    "retailer_type": "Official Retailer"
  },
  {
    "name": "Bachendorf's",
    "address": "13350 Dallas Parkway, Galleria Dallas",
    "city": "Dallas",
    "state": "TX",
    "zip_code": "13350",
    "country": "United States",
    "phone": "+19723929900",
    "website": null,
    "latitude": null,
    "longitude": null,
    "detail_url": "https://www.tudorwatch.com/en/retailers/details/unitedstates",
    "retailer_type": "Official Retailer"
  },
  {
    "name": "De Vons Jewelers",
    "address": "1151 Galleria Blvd, Westfield Galleria at Roseville",
    "city": "Roseville",
    "state": "CA",
    "zip_code": "95678",
    "country": "United States",
    "phone": "+19167884150",
    "website": null,
    "latitude": null,
    "longitude": null,
    "detail_url": "https://www.tudorwatch.com/en/retailers/details/unitedstates",
    "retailer_type": "Official Retailer"
  },
  {
    "name": "Ben Bridge Jeweler",
    "address": "2905 East Skyline Drive, La Encantada Shopping Center",
    "city": "Tucson",
    "state": "AZ",
    "zip_code": "85718",
    "country": "United States",
    "phone": "+15206909115",
    "website": null,
    "latitude": null,
    "longitude": null,
    "detail_url": "https://www.tudorwatch.com/en/retailers/details/unitedstates",
    "retailer_type": "Official Retailer"
  },
  {
    "name": "Larchmont Jewelers",
    "address": "119 North Larchmont Boulevard",
    "city": "Los Angeles",
    "state": "CA",
    "zip_code": "90004",
    "country": "United States",
    "phone": "+13237728888",
    "website": null,
    "latitude": null,
    "longitude": null,
    "detail_url": "https://www.tudorwatch.com/en/retailers/details/unitedstates",
    "retailer_type": "Official Retailer"
  },
  {
    "name": "Fink's Jewelers",
    "address": "",
    "city": "Raleigh",
    "state": "NC",
    "zip_code": "27609",
    "country": "United States",
    "phone": "+19198818247",
    "website": null,
    "latitude": null,
    "longitude": null,
    "detail_url": "https://www.tudorwatch.com/en/retailers/details/unitedstates",
    "retailer_type": "Official Retailer"
  },
  {
    "name": "Bachendorf's",
    "address": "5175 Monahans Avenue, The Shops at Clearfork",
    "city": "Fort Worth",
    "state": "TX",
    "zip_code": "76109",
    "country": "United States",
    "phone": "+18178060303",
    "website": null,
    "latitude": null,
    "longitude": null,
    "detail_url": "https://www.tudorwatch.com/en/retailers/details/unitedstates",
    "retailer_type": "Official Retailer"
  },
  {
    "name": "Bhindi Jewelers",
    "address": "18508 Pioneer Boulevard",
    "city": "Artesia",
    "state": "CA",
    "zip_code": "18508",
    "country": "United States",
    "phone": "+15624028755",
    "website": null,
    "latitude": null,
    "longitude": null,
    "detail_url": "https://www.tudorwatch.com/en/retailers/details/unitedstates",
    "retailer_type": "Official Retailer"
  },
  {
    "name": "Ben Bridge Jeweler",
    "address": "9518 SW Washington Square Road, Washington Square",
    "city": "Portland",
    "state": "OR",
    "zip_code": "97223",
    "country": "United States",
    "phone": "+15036208452",
    "website": null,
    "latitude": null,
    "longitude": null,
    "detail_url": "https://www.tudorwatch.com/en/retailers/details/unitedstates",
    "retailer_type": "Official Retailer"
  },
  {
    "name": "James & Sons",
    "address": "110 South Washington Street",
    "city": "Naperville",
    "state": "IL",
    "zip_code": "60540",
    "country": "United States",
    "phone": "+16302815900",
    "website": null,
    "latitude": null,
    "longitude": null,
    "detail_url": "https://www.tudorwatch.com/en/retailers/details/unitedstates",
    "retailer_type": "Official Retailer"
  },
  {
    "name": "Betteridge Jewelers",
    "address": "141 East Meadow Drive",
    "city": "Vail",
    "state": "CO",
    "zip_code": "81657",
    "country": "United States",
    "phone": "+19707906560",
    "website": null,
    "latitude": null,
    "longitude": null,
    "detail_url": "https://www.tudorwatch.com/en/retailers/details/unitedstates",
    "retailer_type": "Official Retailer"
  },
  {
    "name": "King Jewelers",
    "address": "",
    "city": "Nashville",
    "state": "TN",
    "zip_code": "37215",
    "country": "United States",
    "phone": "+16157245464",
    "website": null,
    "latitude": null,
    "longitude": null,
    "detail_url": "https://www.tudorwatch.com/en/retailers/details/unitedstates",
    "retailer_type": "Official Retailer"
  },
  {
    "name": "Lee Michaels Fine Jewelry",
    "address": "7560 Corporate Boulevard",
    "city": "Baton Rouge",
    "state": "LA",
    "zip_code": "70809",
    "country": "United States",
    "phone": "+12259264644",
    "website": null,
    "latitude": null,
    "longitude": null,
    "detail_url": "https://www.tudorwatch.com/en/retailers/details/unitedstates",
    "retailer_type": "Official Retailer"
  },
  {
    "name": "Davis Jewelers",
    "address": "9901 Forest Green Boulevard",
    "city": "Louisville",
    "state": "KY",
    "zip_code": "40223",
    "country": "United States",
    "phone": "+15022120420",
    "website": null,
    "latitude": null,
    "longitude": null,
    "detail_url": "https://www.tudorwatch.com/en/retailers/details/unitedstates",
    "retailer_type": "Official Retailer"
  },
  {
    "name": "Clarkson Jewelers",
    "address": "1306 Clarkson Clayton Center",
    "city": "Ellisville",
    "state": "MO",
    "zip_code": "63011",
    "country": "United States",
    "phone": "+16362272006",
    "website": null,
    "latitude": null,
    "longitude": null,
    "detail_url": "https://www.tudorwatch.com/en/retailers/details/unitedstates",
    "retailer_type": "Official Retailer"
  },
  {
    "name": "Davidson & Licht",
    "address": "1329 Main Street",
    "city": "Walnut Creek",
    "state": "CA",
    "zip_code": "94596",
    "country": "United States",
    "phone": "+19259350940",
    "website": null,
    "latitude": null,
    "longitude": null,
    "detail_url": "https://www.tudorwatch.com/en/retailers/details/unitedstates",
    "retailer_type": "Official Retailer"
  },
  {
    "name": "KORMAN",
    "address": "2901 North Lamar Boulevard",
    "city": "Austin",
    "state": "TX",
    "zip_code": "78705",
    "country": "United States",
    "phone": "+15124519292",
    "website": null,
    "latitude": null,
    "longitude": null,
    "detail_url": "https://www.tudorwatch.com/en/retailers/details/unitedstates",
    "retailer_type": "Official Retailer"
  },
  {
    "name": "Lee Michaels Fine Jewelry",
    "address": "255 East Basse Road, Suite 900",
    "city": "San Antonio",
    "state": "TX",
    "zip_code": "78209",
    "country": "United States",
    "phone": "+12102785980",
    "website": null,
    "latitude": null,
    "longitude": null,
    "detail_url": "https://www.tudorwatch.com/en/retailers/details/unitedstates",
    "retailer_type": "Official Retailer"
  },
  {
    "name": "Ben Bridge Jeweler",
    "address": "1530 5th Avenue",
    "city": "Seattle",
    "state": "WA",
    "zip_code": "98101",
    "country": "United States",
    "phone": "+12067161000",
    "website": null,
    "latitude": null,
    "longitude": null,
    "detail_url": "https://www.tudorwatch.com/en/retailers/details/unitedstates",
    "retailer_type": "Official Retailer"
  },
  {
    "name": "Fink's Jewelers",
    "address": "5019 Aspen Grove Drive",
    "city": "Franklin",
    "state": "TN",
    "zip_code": "37067",
    "country": "United States",
    "phone": "+16152368176",
    "website": null,
    "latitude": null,
    "longitude": null,
    "detail_url": "https://www.tudorwatch.com/en/retailers/details/unitedstates",
    "retailer_type": "Official Retailer"
  },
  {
    "name": "Fink's Jewelers",
    "address": "12130 West Broad Street",
    "city": "Richmond",
    "state": "VA",
    "zip_code": "12130",
    "country": "United States",
    "phone": "+18043778589",
    "website": null,
    "latitude": null,
    "longitude": null,
    "detail_url": "https://www.tudorwatch.com/en/retailers/details/unitedstates",
    "retailer_type": "Official Retailer"
  },
  {
    "name": "James Free Jewelers",
    "address": "3100 Far Hills Avenue",
    "city": "Dayton",
    "state": "OH",
    "zip_code": "45429",
    "country": "United States",
    "phone": "+19372980171",
    "website": null,
    "latitude": null,
    "longitude": null,
    "detail_url": "https://www.tudorwatch.com/en/retailers/details/unitedstates",
    "retailer_type": "Official Retailer"
  },
  {
    "name": "Bucherer 1888 The Plaza at King of Prussia",
    "address": "1888 The Plaza at King of Prussia",
    "city": "King of Prussia",
    "state": "PA",
    "zip_code": "19406",
    "country": "United States",
    "phone": "+16104918801",
    "website": null,
    "latitude": null,
    "longitude": null,
    "detail_url": "https://www.tudorwatch.com/en/retailers/details/unitedstates",
    "retailer_type": "Official Retailer"
  },
  {
    "name": "Bucherer 1888 Bryant Park",
    "address": "1095 6th Avenue, Avenue of the Americas at Bryant Park",
    "city": "New York",
    "state": "NY",
    "zip_code": "10036",
    "country": "United States",
    "phone": "+12122788041",
    "website": null,
    "latitude": null,
    "longitude": null,
    "detail_url": "https://www.tudorwatch.com/en/retailers/details/unitedstates",
    "retailer_type": "Official Retailer"
  },
  {
    "name": "Gunderson's Jewelers",
    "address": "102 N 145th Street, Heartwood Preserve",
    "city": "Omaha",
    "state": "NE",
    "zip_code": "68154",
    "country": "United States",
    "phone": "+14029356332",
    "website": null,
    "latitude": null,
    "longitude": null,
    "detail_url": "https://www.tudorwatch.com/en/retailers/details/unitedstates",
    "retailer_type": "Official Retailer"
  },
  {
    "name": "Date & Time",
    "address": "5 Concord Road",
    "city": "Sudbury",
    "state": "MA",
    "zip_code": "01776",
    "country": "United States",
    "phone": "+19785793002",
    "website": null,
    "latitude": null,
    "longitude": null,
    "detail_url": "https://www.tudorwatch.com/en/retailers/details/unitedstates",
    "retailer_type": "Official Retailer"
  },
  {
    "name": "Exclusively Diamonds",
    "address": "1601 Adams Street",
    "city": "Mankato",
    "state": "MN",
    "zip_code": "56001",
    "country": "United States",
    "phone": "+15073451658",
    "website": null,
    "latitude": null,
    "longitude": null,
    "detail_url": "https://www.tudorwatch.com/en/retailers/details/unitedstates",
    "retailer_type": "Official Retailer"
  },
  {
    "name": "Fourtane",
    "address": "",
    "city": "Carmel-by-the-Sea",
    "state": "CA",
    "zip_code": "93921",
    "country": "United States",
    "phone": "+18316244684",
    "website": null,
    "latitude": null,
    "longitude": null,
    "detail_url": "https://www.tudorwatch.com/en/retailers/details/unitedstates",
    "retailer_type": "Official Retailer"
  },
  {
    "name": "Bucherer 1888 Roosevelt Field",
    "address": "630 Old Country Road, Roosevelt Field Mall",
    "city": "Garden City",
    "state": "NY",
    "zip_code": "11530",
    "country": "United States",
    "phone": "+15168730209",
    "website": null,
    "latitude": null,
    "longitude": null,
    "detail_url": "https://www.tudorwatch.com/en/retailers/details/unitedstates",
    "retailer_type": "Official Retailer"
  },
  {
    "name": "Floyd & Green",
    "address": "515 Silver Bluff Road",
    "city": "Aiken",
    "state": "SC",
    "zip_code": "29803",
    "country": "United States",
    "phone": "+18036496005",
    "website": null,
    "latitude": null,
    "longitude": null,
    "detail_url": "https://www.tudorwatch.com/en/retailers/details/unitedstates",
    "retailer_type": "Official Retailer"
  },
  {
    "name": "Frank Adams Jewelers",
    "address": "144 Wolf Road",
    "city": "Albany",
    "state": "NY",
    "zip_code": "12205",
    "country": "United States",
    "phone": "+15184350075",
    "website": null,
    "latitude": null,
    "longitude": null,
    "detail_url": "https://www.tudorwatch.com/en/retailers/details/unitedstates",
    "retailer_type": "Official Retailer"
  },
  {
    "name": "Fink's Jewelers",
    "address": "1950 Gunbarrel Road",
    "city": "Chattanooga",
    "state": "TN",
    "zip_code": "37421",
    "country": "United States",
    "phone": "+14238941188",
    "website": null,
    "latitude": null,
    "longitude": null,
    "detail_url": "https://www.tudorwatch.com/en/retailers/details/unitedstates",
    "retailer_type": "Official Retailer"
  },
  {
    "name": "Ben Bridge Jeweler",
    "address": "3000 184th Street SW, Alderwood Mall",
    "city": "Lynnwood",
    "state": "WA",
    "zip_code": "98037",
    "country": "United States",
    "phone": "+14257717227",
    "website": null,
    "latitude": null,
    "longitude": null,
    "detail_url": "https://www.tudorwatch.com/en/retailers/details/unitedstates",
    "retailer_type": "Official Retailer"
  },
  {
    "name": "Fink's Jewelers",
    "address": "6910 Fayetteville Road, The Streets at Southpoint",
    "city": "Durham",
    "state": "NC",
    "zip_code": "27713",
    "country": "United States",
    "phone": "+19192818407",
    "website": null,
    "latitude": null,
    "longitude": null,
    "detail_url": "https://www.tudorwatch.com/en/retailers/details/unitedstates",
    "retailer_type": "Official Retailer"
  },
  {
    "name": "Polacheck's Jewelers",
    "address": "4719 Commons Way",
    "city": "Calabasas",
    "state": "CA",
    "zip_code": "91302",
    "country": "United States",
    "phone": "+18182250600",
    "website": null,
    "latitude": null,
    "longitude": null,
    "detail_url": "https://www.tudorwatch.com/en/retailers/details/unitedstates",
    "retailer_type": "Official Retailer"
  },
  {
    "name": "Lee Perla Jewelers",
    "address": "193B Riverside Square, The Shops at Riverside",
    "city": "Hackensack",
    "state": "NJ",
    "zip_code": "07601",
    "country": "United States",
    "phone": "+12013438655",
    "website": null,
    "latitude": null,
    "longitude": null,
    "detail_url": "https://www.tudorwatch.com/en/retailers/details/unitedstates",
    "retailer_type": "Official Retailer"
  },
  {
    "name": "Wickersham Company",
    "address": "7855 North Palm Avenue",
    "city": "Fresno",
    "state": "CA",
    "zip_code": "93711",
    "country": "United States",
    "phone": "+15598036521",
    "website": null,
    "latitude": null,
    "longitude": null,
    "detail_url": "https://www.tudorwatch.com/en/retailers/details/unitedstates",
    "retailer_type": "Official Retailer"
  },
  {
    "name": "Sissy's Log Cabin",
    "address": "4542 Poplar Avenue",
    "city": "Memphis",
    "state": "TN",
    "zip_code": "38117",
    "country": "United States",
    "phone": "+19018340067",
    "website": null,
    "latitude": null,
    "longitude": null,
    "detail_url": "https://www.tudorwatch.com/en/retailers/details/unitedstates",
    "retailer_type": "Official Retailer"
  },
  {
    "name": "Watches of Switzerland",
    "address": "7875 Montgomery Road, Kenwood Towne Center",
    "city": "Cincinnati",
    "state": "OH",
    "zip_code": "45236",
    "country": "United States",
    "phone": "+15138222781",
    "website": null,
    "latitude": null,
    "longitude": null,
    "detail_url": "https://www.tudorwatch.com/en/retailers/details/unitedstates",
    "retailer_type": "Official Retailer"
  },
  {
    "name": "Swiss Watch Gallery",
    "address": "1014 A Brea Mall",
    "city": "Brea",
    "state": "CA",
    "zip_code": "92821",
    "country": "United States",
    "phone": "+17146172700",
    "website": null,
    "latitude": null,
    "longitude": null,
    "detail_url": "https://www.tudorwatch.com/en/retailers/details/unitedstates",
    "retailer_type": "Official Retailer"
  },
  {
    "name": "Wempe Jewelers",
    "address": "700 Fifth Avenue",
    "city": "New York",
    "state": "NY",
    "zip_code": "10019",
    "country": "United States",
    "phone": "+12123979000",
    "website": null,
    "latitude": null,
    "longitude": null,
    "detail_url": "https://www.tudorwatch.com/en/retailers/details/unitedstates",
    "retailer_type": "Official Retailer"
  },
  {
    "name": "Swiss Watch Gallery",
    "address": "",
    "city": "Mission Viejo",
    "state": "CA",
    "zip_code": "92691",
    "country": "United States",
    "phone": "+19493642500",
    "website": null,
    "latitude": null,
    "longitude": null,
    "detail_url": "https://www.tudorwatch.com/en/retailers/details/unitedstates",
    "retailer_type": "Official Retailer"
  },
  {
    "name": "Reeds Jewelers",
    "address": "201 Fenton Gateway Drive, Fenton Suite 120",
    "city": "Cary",
    "state": "NC",
    "zip_code": "27511",
    "country": "United States",
    "phone": "+19843704727",
    "website": null,
    "latitude": null,
    "longitude": null,
    "detail_url": "https://www.tudorwatch.com/en/retailers/details/unitedstates",
    "retailer_type": "Official Retailer"
  },
  {
    "name": "Watches of Switzerland",
    "address": "20 Hudson Yards, Hudson Yards - The Shops",
    "city": "New York",
    "state": "NY",
    "zip_code": "10001",
    "country": "United States",
    "phone": "+12123198040",
    "website": null,
    "latitude": null,
    "longitude": null,
    "detail_url": "https://www.tudorwatch.com/en/retailers/details/unitedstates",
    "retailer_type": "Official Retailer"
  },
  {
    "name": "Louis Anthony Jewelers",
    "address": "1775 North Highland Road, Norman Centre II",
    "city": "Pittsburgh",
    "state": "PA",
    "zip_code": "15241",
    "country": "United States",
    "phone": "+14128540310",
    "website": null,
    "latitude": null,
    "longitude": null,
    "detail_url": "https://www.tudorwatch.com/en/retailers/details/unitedstates",
    "retailer_type": "Official Retailer"
  },
  {
    "name": "Thomas Markle Jewelers",
    "address": "9595 Six Pines Drive, Suite 1170",
    "city": "The Woodlands",
    "state": "TX",
    "zip_code": "77380",
    "country": "United States",
    "phone": "+12813632400",
    "website": null,
    "latitude": null,
    "longitude": null,
    "detail_url": "https://www.tudorwatch.com/en/retailers/details/unitedstates",
    "retailer_type": "Official Retailer"
  },
  {
    "name": "Royal Jewelers",
    "address": "58 Main Street",
    "city": "Andover",
    "state": "MA",
    "zip_code": "01810",
    "country": "United States",
    "phone": "+19784753330",
    "website": null,
    "latitude": null,
    "longitude": null,
    "detail_url": "https://www.tudorwatch.com/en/retailers/details/unitedstates",
    "retailer_type": "Official Retailer"
  },
  {
    "name": "Mayors Jewelers",
    "address": "6000 Glades Road, Town Center at Boca Raton",
    "city": "Boca Raton",
    "state": "FL",
    "zip_code": "33431",
    "country": "United States",
    "phone": "+15613686022",
    "website": null,
    "latitude": null,
    "longitude": null,
    "detail_url": "https://www.tudorwatch.com/en/retailers/details/unitedstates",
    "retailer_type": "Official Retailer"
  },
  {
    "name": "Tapper's Jewelry",
    "address": "20800 Haggerty Road",
    "city": "Novi",
    "state": "MI",
    "zip_code": "20800",
    "country": "United States",
    "phone": "+12484651800",
    "website": null,
    "latitude": null,
    "longitude": null,
    "detail_url": "https://www.tudorwatch.com/en/retailers/details/unitedstates",
    "retailer_type": "Official Retailer"
  },
  {
    "name": "Long's Jewelers",
    "address": "60A South Avenue",
    "city": "Burlington",
    "state": "MA",
    "zip_code": "01803",
    "country": "United States",
    "phone": "+17815725400",
    "website": null,
    "latitude": null,
    "longitude": null,
    "detail_url": "https://www.tudorwatch.com/en/retailers/details/unitedstates",
    "retailer_type": "Official Retailer"
  },
  {
    "name": "Lewis Jewelers",
    "address": "300 South Maple Road",
    "city": "Ann Arbor",
    "state": "MI",
    "zip_code": "48103",
    "country": "United States",
    "phone": null,
    "website": null,
    "latitude": null,
    "longitude": null,
    "detail_url": "https://www.tudorwatch.com/en/retailers/details/unitedstates",
    "retailer_type": "Official Retailer"
  },
  {
    "name": "Liljenquist & Beckstead",
    "address": "2001 International Drive, Galleria at Tysons II",
    "city": "McLean",
    "state": "VA",
    "zip_code": "22102",
    "country": "United States",
    "phone": "+17034486731",
    "website": null,
    "latitude": null,
    "longitude": null,
    "detail_url": "https://www.tudorwatch.com/en/retailers/details/unitedstates",
    "retailer_type": "Official Retailer"
  },
  {
    "name": "Reis-Nichols Jewelers",
    "address": "",
    "city": "Greenwood",
    "state": "IN",
    "zip_code": "46142",
    "country": "United States",
    "phone": "+13178834467",
    "website": null,
    "latitude": null,
    "longitude": null,
    "detail_url": "https://www.tudorwatch.com/en/retailers/details/unitedstates",
    "retailer_type": "Official Retailer"
  },
  {
    "name": "Reeds Jewelers",
    "address": "700 Haywood Mall",
    "city": "Greenville",
    "state": "SC",
    "zip_code": "29607",
    "country": "United States",
    "phone": "+18642889752",
    "website": null,
    "latitude": null,
    "longitude": null,
    "detail_url": "https://www.tudorwatch.com/en/retailers/details/unitedstates",
    "retailer_type": "Official Retailer"
  },
  {
    "name": "Mayors Jewelers",
    "address": "2223 North Westshore Blvd, International Plaza",
    "city": "Tampa",
    "state": "FL",
    "zip_code": "33607",
    "country": "United States",
    "phone": "+18133548080",
    "website": null,
    "latitude": null,
    "longitude": null,
    "detail_url": "https://www.tudorwatch.com/en/retailers/details/unitedstates",
    "retailer_type": "Official Retailer"
  },
  {
    "name": "The 1916 Company",
    "address": "3208 North Sepulveda Boulevard, Manhattan Village",
    "city": "Manhattan Beach",
    "state": "CA",
    "zip_code": "90266",
    "country": "United States",
    "phone": "+13102098123",
    "website": null,
    "latitude": null,
    "longitude": null,
    "detail_url": "https://www.tudorwatch.com/en/retailers/details/unitedstates",
    "retailer_type": "Official Retailer"
  },
  {
    "name": "Burdeen's Jewelry",
    "address": "120 East Oak Street",
    "city": "Chicago",
    "state": "IL",
    "zip_code": "60611",
    "country": "United States",
    "phone": "+17734358265",
    "website": null,
    "latitude": null,
    "longitude": null,
    "detail_url": "https://www.tudorwatch.com/en/retailers/details/unitedstates",
    "retailer_type": "Official Retailer"
  },
  {
    "name": "Orr's Jewelers",
    "address": "532 Beaver Street",
    "city": "Sewickley",
    "state": "PA",
    "zip_code": "15143",
    "country": "United States",
    "phone": "+14128418080",
    "website": null,
    "latitude": null,
    "longitude": null,
    "detail_url": "https://www.tudorwatch.com/en/retailers/details/unitedstates",
    "retailer_type": "Official Retailer"
  },
  {
    "name": "Long's Jewelers",
    "address": "323 Daniel Webster Highway",
    "city": "Nashua",
    "state": "NH",
    "zip_code": "03060",
    "country": "United States",
    "phone": "+16038912000",
    "website": null,
    "latitude": null,
    "longitude": null,
    "detail_url": "https://www.tudorwatch.com/en/retailers/details/unitedstates",
    "retailer_type": "Official Retailer"
  },
  {
    "name": "Mayors Jewelers",
    "address": "19575 Biscayne Blvd, Aventura Mall",
    "city": "Aventura",
    "state": "FL",
    "zip_code": "19575",
    "country": "United States",
    "phone": "+13059371444",
    "website": null,
    "latitude": null,
    "longitude": null,
    "detail_url": "https://www.tudorwatch.com/en/retailers/details/unitedstates",
    "retailer_type": "Official Retailer"
  },
  {
    "name": "Murphy Jewelers",
    "address": "948 Lehigh Valley Lifestyle Center, Lehigh Valley Mall",
    "city": "Whitehall",
    "state": "PA",
    "zip_code": "18052",
    "country": "United States",
    "phone": "+16107915200",
    "website": null,
    "latitude": null,
    "longitude": null,
    "detail_url": "https://www.tudorwatch.com/en/retailers/details/unitedstates",
    "retailer_type": "Official Retailer"
  },
  {
    "name": "Mahler Jewelers",
    "address": "590 SW 10th Avenue",
    "city": "Portland",
    "state": "OR",
    "zip_code": "97205",
    "country": "United States",
    "phone": "+15032283111",
    "website": null,
    "latitude": null,
    "longitude": null,
    "detail_url": "https://www.tudorwatch.com/en/retailers/details/unitedstates",
    "retailer_type": "Official Retailer"
  },
  {
    "name": "Long's Jewelers",
    "address": "35 Cross Street",
    "city": "Peabody",
    "state": "MA",
    "zip_code": "01960",
    "country": "United States",
    "phone": "+19785316900",
    "website": null,
    "latitude": null,
    "longitude": null,
    "detail_url": "https://www.tudorwatch.com/en/retailers/details/unitedstates",
    "retailer_type": "Official Retailer"
  },
  {
    "name": "Mayors Jewelers",
    "address": "5155 Avalon Boulevard",
    "city": "Alpharetta",
    "state": "GA",
    "zip_code": "30009",
    "country": "United States",
    "phone": "+17706671887",
    "website": null,
    "latitude": null,
    "longitude": null,
    "detail_url": "https://www.tudorwatch.com/en/retailers/details/unitedstates",
    "retailer_type": "Official Retailer"
  },
  {
    "name": "Mayors Jewelers",
    "address": "7535 North Kendall Drive, Dadeland Mall",
    "city": "Miami",
    "state": "FL",
    "zip_code": "33156",
    "country": "United States",
    "phone": "+13056677517",
    "website": null,
    "latitude": null,
    "longitude": null,
    "detail_url": "https://www.tudorwatch.com/en/retailers/details/unitedstates",
    "retailer_type": "Official Retailer"
  },
  {
    "name": "Schiffman's Jewelers",
    "address": "811 Friendly Center Road",
    "city": "Greensboro",
    "state": "NC",
    "zip_code": "27408",
    "country": "United States",
    "phone": "+13362944885",
    "website": null,
    "latitude": null,
    "longitude": null,
    "detail_url": "https://www.tudorwatch.com/en/retailers/details/unitedstates",
    "retailer_type": "Official Retailer"
  },
  {
    "name": "Reeds Jewelers",
    "address": "926 Inspiration Drive, Mayfaire Town Center",
    "city": "Wilmington",
    "state": "NC",
    "zip_code": "28405",
    "country": "United States",
    "phone": "+19102562962",
    "website": null,
    "latitude": null,
    "longitude": null,
    "detail_url": "https://www.tudorwatch.com/en/retailers/details/unitedstates",
    "retailer_type": "Official Retailer"
  },
  {
    "name": "Manfredi",
    "address": "72 Elm Street",
    "city": "New Canaan",
    "state": "CT",
    "zip_code": "06840",
    "country": "United States",
    "phone": "+12039668705",
    "website": null,
    "latitude": null,
    "longitude": null,
    "detail_url": "https://www.tudorwatch.com/en/retailers/details/unitedstates",
    "retailer_type": "Official Retailer"
  },
  {
    "name": "Martin Binder Jeweler",
    "address": "650 West Morthland Drive",
    "city": "Valparaiso",
    "state": "IN",
    "zip_code": "46385",
    "country": "United States",
    "phone": "+12194625931",
    "website": null,
    "latitude": null,
    "longitude": null,
    "detail_url": "https://www.tudorwatch.com/en/retailers/details/unitedstates",
    "retailer_type": "Official Retailer"
  },
  {
    "name": "Lux Bond & Green",
    "address": "136 Main Street",
    "city": "Westport",
    "state": "CT",
    "zip_code": "06880",
    "country": "United States",
    "phone": "+12032271300",
    "website": null,
    "latitude": null,
    "longitude": null,
    "detail_url": "https://www.tudorwatch.com/en/retailers/details/unitedstates",
    "retailer_type": "Official Retailer"
  },
  {
    "name": "Long's Jewelers",
    "address": "150 Granite Street",
    "city": "Braintree",
    "state": "MA",
    "zip_code": "02184",
    "country": "United States",
    "phone": "+17813565300",
    "website": null,
    "latitude": null,
    "longitude": null,
    "detail_url": "https://www.tudorwatch.com/en/retailers/details/unitedstates",
    "retailer_type": "Official Retailer"
  },
  {
    "name": "Reeds Jewelers",
    "address": "3061 Howard Avenue",
    "city": "Myrtle Beach",
    "state": "SC",
    "zip_code": "29577",
    "country": "United States",
    "phone": null,
    "website": null,
    "latitude": null,
    "longitude": null,
    "detail_url": "https://www.tudorwatch.com/en/retailers/details/unitedstates",
    "retailer_type": "Official Retailer"
  },
  {
    "name": "Tivol",
    "address": "220 Nichols Road",
    "city": "Kansas City",
    "state": "MO",
    "zip_code": "64112",
    "country": "United States",
    "phone": "+18165315800",
    "website": null,
    "latitude": null,
    "longitude": null,
    "detail_url": "https://www.tudorwatch.com/en/retailers/details/unitedstates",
    "retailer_type": "Official Retailer"
  },
  {
    "name": "Zadok Jewelers",
    "address": "1801 Post Oak Boulevard",
    "city": "Houston",
    "state": "TX",
    "zip_code": "77056",
    "country": "United States",
    "phone": "+17139608950",
    "website": null,
    "latitude": null,
    "longitude": null,
    "detail_url": "https://www.tudorwatch.com/en/retailers/details/unitedstates",
    "retailer_type": "Official Retailer"
  },
  {
    "name": "Simons Jewelers",
    "address": "8141 Maryland Avenue",
    "city": "Clayton",
    "state": "MO",
    "zip_code": "63105",
    "country": "United States",
    "phone": "+13147258888",
    "website": null,
    "latitude": null,
    "longitude": null,
    "detail_url": "https://www.tudorwatch.com/en/retailers/details/unitedstates",
    "retailer_type": "Official Retailer"
  },
  {
    "name": "London Jewelers",
    "address": "2046 Northern Boulevard, Americana Manhasset",
    "city": "Manhasset",
    "state": "NY",
    "zip_code": "11030",
    "country": "United States",
    "phone": "+15166277475",
    "website": null,
    "latitude": null,
    "longitude": null,
    "detail_url": "https://www.tudorwatch.com/en/retailers/details/unitedstates",
    "retailer_type": "Official Retailer"
  },
  {
    "name": "Schwanke-Kasten Jewelers",
    "address": "417 East Silver Spring Drive",
    "city": "Milwaukee",
    "state": "WI",
    "zip_code": "53217",
    "country": "United States",
    "phone": "+14149641242",
    "website": null,
    "latitude": null,
    "longitude": null,
    "detail_url": "https://www.tudorwatch.com/en/retailers/details/unitedstates",
    "retailer_type": "Official Retailer"
  },
  {
    "name": "Windsor Fine Jewelers",
    "address": "2635 Washington Road",
    "city": "Augusta",
    "state": "GA",
    "zip_code": "30904",
    "country": "United States",
    "phone": "+17067387777",
    "website": null,
    "latitude": null,
    "longitude": null,
    "detail_url": "https://www.tudorwatch.com/en/retailers/details/unitedstates",
    "retailer_type": "Official Retailer"
  },
  {
    "name": "Leonardo Jewelers",
    "address": "665 Middlesex Avenue",
    "city": "Metuchen",
    "state": "NJ",
    "zip_code": "08840",
    "country": "United States",
    "phone": "+17325497880",
    "website": null,
    "latitude": null,
    "longitude": null,
    "detail_url": "https://www.tudorwatch.com/en/retailers/details/unitedstates",
    "retailer_type": "Official Retailer"
  },
  {
    "name": "Walters & Hogsett Jewelers",
    "address": "2425 Canyon Boulevard, Suite J",
    "city": "Boulder",
    "state": "CO",
    "zip_code": "80302",
    "country": "United States",
    "phone": "+13034492626",
    "website": null,
    "latitude": null,
    "longitude": null,
    "detail_url": "https://www.tudorwatch.com/en/retailers/details/unitedstates",
    "retailer_type": "Official Retailer"
  },
  {
    "name": "O.C. Tanner",
    "address": "15 South State Street",
    "city": "Salt Lake City",
    "state": "UT",
    "zip_code": "84111",
    "country": "United States",
    "phone": "+18015323222",
    "website": null,
    "latitude": null,
    "longitude": null,
    "detail_url": "https://www.tudorwatch.com/en/retailers/details/unitedstates",
    "retailer_type": "Official Retailer"
  },
  {
    "name": "Underwood Jewelers",
    "address": "2044 San Marco Boulevard",
    "city": "Jacksonville",
    "state": "FL",
    "zip_code": "32207",
    "country": "United States",
    "phone": "+19043989741",
    "website": null,
    "latitude": null,
    "longitude": null,
    "detail_url": "https://www.tudorwatch.com/en/retailers/details/unitedstates",
    "retailer_type": "Official Retailer"
  },
  {
    "name": "Watches of Switzerland",
    "address": "60 Greene Street",
    "city": "New York",
    "state": "NY",
    "zip_code": "10012",
    "country": "United States",
    "phone": "+16469733363",
    "website": null,
    "latitude": null,
    "longitude": null,
    "detail_url": "https://www.tudorwatch.com/en/retailers/details/unitedstates",
    "retailer_type": "Official Retailer"
  },
  {
    "name": "Wilson & Son Jewelers",
    "address": "10 Spencer Place",
    "city": "Scarsdale",
    "state": "NY",
    "zip_code": "10583",
    "country": "United States",
    "phone": "+19147230327",
    "website": null,
    "latitude": null,
    "longitude": null,
    "detail_url": "https://www.tudorwatch.com/en/retailers/details/unitedstates",
    "retailer_type": "Official Retailer"
  },
  {
    "name": "Windsor Jewelers",
    "address": "6809D Phillips Place Court",
    "city": "Charlotte",
    "state": "NC",
    "zip_code": "28210",
    "country": "United States",
    "phone": "+17045567747",
    "website": null,
    "latitude": null,
    "longitude": null,
    "detail_url": "https://www.tudorwatch.com/en/retailers/details/unitedstates",
    "retailer_type": "Official Retailer"
  },
  {
    "name": "Reeds Jewelers",
    "address": "459 Brandon Town Center Drive, Suite 550",
    "city": "Brandon",
    "state": "FL",
    "zip_code": "33511",
    "country": "United States",
    "phone": null,
    "website": null,
    "latitude": null,
    "longitude": null,
    "detail_url": "https://www.tudorwatch.com/en/retailers/details/unitedstates",
    "retailer_type": "Official Retailer"
  },
  {
    "name": "Reeds Jewelers",
    "address": "4240 Legendary Drive, Destin Commons",
    "city": "Destin",
    "state": "FL",
    "zip_code": "32541",
    "country": "United States",
    "phone": "+18502690133",
    "website": null,
    "latitude": null,
    "longitude": null,
    "detail_url": "https://www.tudorwatch.com/en/retailers/details/unitedstates",
    "retailer_type": "Official Retailer"
  },
  {
    "name": "Liljenquist & Beckstead",
    "address": "7101 Democracy Boulevard, Montgomery Mall Suite 2402",
    "city": "Bethesda",
    "state": "MD",
    "zip_code": "20817",
    "country": "United States",
    "phone": "+13014697575",
    "website": null,
    "latitude": null,
    "longitude": null,
    "detail_url": "https://www.tudorwatch.com/en/retailers/details/unitedstates",
    "retailer_type": "Official Retailer"
  },
  {
    "name": "Providence Diamond Company",
    "address": "105 Hillside Road, Garden City Center",
    "city": "Cranston",
    "state": "RI",
    "zip_code": "02920",
    "country": "United States",
    "phone": "+14019467070",
    "website": null,
    "latitude": null,
    "longitude": null,
    "detail_url": "https://www.tudorwatch.com/en/retailers/details/unitedstates",
    "retailer_type": "Official Retailer"
  },
  {
    "name": "Mayors Jewelers",
    "address": "342 San Lorenzo Ave., Village of Merrick Park",
    "city": "Coral Gables",
    "state": "FL",
    "zip_code": "33146",
    "country": "United States",
    "phone": "+13054461233",
    "website": null,
    "latitude": null,
    "longitude": null,
    "detail_url": "https://www.tudorwatch.com/en/retailers/details/unitedstates",
    "retailer_type": "Official Retailer"
  },
  {
    "name": "R.F. Moeller Jeweler",
    "address": "2065 Ford Parkway",
    "city": "Saint Paul",
    "state": "MN",
    "zip_code": "55116",
    "country": "United States",
    "phone": "+16516986321",
    "website": null,
    "latitude": null,
    "longitude": null,
    "detail_url": "https://www.tudorwatch.com/en/retailers/details/unitedstates",
    "retailer_type": "Official Retailer"
  },
  {
    "name": "Reeds Jewelers of Niagara Falls",
    "address": "4001 Maple Road",
    "city": "Amherst",
    "state": "NY",
    "zip_code": "14226",
    "country": "United States",
    "phone": "+17168373934",
    "website": null,
    "latitude": null,
    "longitude": null,
    "detail_url": "https://www.tudorwatch.com/en/retailers/details/unitedstates",
    "retailer_type": "Official Retailer"
  },
  {
    "name": "Underwood Jewelers",
    "address": "",
    "city": "Ponte Vedra Beach",
    "state": "FL",
    "zip_code": "32082",
    "country": "United States",
    "phone": "+19042801202",
    "website": null,
    "latitude": null,
    "longitude": null,
    "detail_url": "https://www.tudorwatch.com/en/retailers/details/unitedstates",
    "retailer_type": "Official Retailer"
  },
  {
    "name": "Mayors Jewelers",
    "address": "140 University Town Center Drive, The Mall at University Town Center",
    "city": "Sarasota",
    "state": "FL",
    "zip_code": "34243",
    "country": "United States",
    "phone": "+19418931124",
    "website": null,
    "latitude": null,
    "longitude": null,
    "detail_url": "https://www.tudorwatch.com/en/retailers/details/unitedstates",
    "retailer_type": "Official Retailer"
  },
  {
    "name": "Bucherer 1888 Whalers Village",
    "address": "2435 Kaanapali Parkway",
    "city": "Lahaina",
    "state": "HI",
    "zip_code": "96761",
    "country": "United States",
    "phone": "+18086616806",
    "website": null,
    "latitude": null,
    "longitude": null,
    "detail_url": "https://www.tudorwatch.com/en/retailers/details/unitedstates",
    "retailer_type": "Official Retailer"
  },
  {
    "name": "Westime",
    "address": "1227 Prospect Street",
    "city": "La Jolla",
    "state": "CA",
    "zip_code": "92037",
    "country": "United States",
    "phone": "+18584592222",
    "website": null,
    "latitude": null,
    "longitude": null,
    "detail_url": "https://www.tudorwatch.com/en/retailers/details/unitedstates",
    "retailer_type": "Official Retailer"
  },
  {
    "name": "Hamilton Jewelers",
    "address": "215 Worth Avenue",
    "city": "Palm Beach",
    "state": "FL",
    "zip_code": "33480",
    "country": "United States",
    "phone": "+15617753600",
    "website": null,
    "latitude": null,
    "longitude": null,
    "detail_url": "https://www.tudorwatch.com/en/retailers/details/unitedstates",
    "retailer_type": "Official Retailer"
  },
  {
    "name": "Springer's Jewelers",
    "address": "100 Market Street, Suite 101",
    "city": "Portsmouth",
    "state": "NH",
    "zip_code": "03801",
    "country": "United States",
    "phone": "+16034318418",
    "website": null,
    "latitude": null,
    "longitude": null,
    "detail_url": "https://www.tudorwatch.com/en/retailers/details/unitedstates",
    "retailer_type": "Official Retailer"
  },
  {
    "name": "Meridian Jewelers",
    "address": "525 East Cooper Avenue",
    "city": "Aspen",
    "state": "CO",
    "zip_code": "81611",
    "country": "United States",
    "phone": "+19709253833",
    "website": null,
    "latitude": null,
    "longitude": null,
    "detail_url": "https://www.tudorwatch.com/en/retailers/details/unitedstates",
    "retailer_type": "Official Retailer"
  },
  {
    "name": "Lux Bond & Green",
    "address": "46 LaSalle Road",
    "city": "West Hartford",
    "state": "CT",
    "zip_code": "06107",
    "country": "United States",
    "phone": "+18605213015",
    "website": null,
    "latitude": null,
    "longitude": null,
    "detail_url": "https://www.tudorwatch.com/en/retailers/details/unitedstates",
    "retailer_type": "Official Retailer"
  },
  {
    "name": "Leonardo Jewelers",
    "address": "73 Broad Street",
    "city": "Red Bank",
    "state": "NJ",
    "zip_code": "07701",
    "country": "United States",
    "phone": "+17327477880",
    "website": null,
    "latitude": null,
    "longitude": null,
    "detail_url": "https://www.tudorwatch.com/en/retailers/details/unitedstates",
    "retailer_type": "Official Retailer"
  },
  {
    "name": "Reeds Jewelers",
    "address": "43 Town Square Blvd, #130",
    "city": "Asheville",
    "state": "NC",
    "zip_code": "28803",
    "country": "United States",
    "phone": "+18282984024",
    "website": null,
    "latitude": null,
    "longitude": null,
    "detail_url": "https://www.tudorwatch.com/en/retailers/details/unitedstates",
    "retailer_type": "Official Retailer"
  },
  {
    "name": "Leeds & Son | Bucherer 1888 Palm Desert",
    "address": "",
    "city": "Palm Desert",
    "state": "CA",
    "zip_code": "92260",
    "country": "United States",
    "phone": "+17605685266",
    "website": null,
    "latitude": null,
    "longitude": null,
    "detail_url": "https://www.tudorwatch.com/en/retailers/details/unitedstates",
    "retailer_type": "Official Retailer"
  },
  {
    "name": "Watches of Switzerland",
    "address": "7500 Windrose Avenue, Suite B190",
    "city": "Plano",
    "state": "TX",
    "zip_code": "75024",
    "country": "United States",
    "phone": "+12144944241",
    "website": null,
    "latitude": null,
    "longitude": null,
    "detail_url": "https://www.tudorwatch.com/en/retailers/details/unitedstates",
    "retailer_type": "Official Retailer"
  },
  {
    "name": "Williams Jewelers of Englewood",
    "address": "5095 South Broadway",
    "city": "Englewood",
    "state": "CO",
    "zip_code": "80113",
    "country": "United States",
    "phone": "+13037619700",
    "website": null,
    "latitude": null,
    "longitude": null,
    "detail_url": "https://www.tudorwatch.com/en/retailers/details/unitedstates",
    "retailer_type": "Official Retailer"
  },
  {
    "name": "Watches of Switzerland",
    "address": "10 Southdale Center",
    "city": "Edina",
    "state": "MN",
    "zip_code": "55435",
    "country": "United States",
    "phone": "+16124450094",
    "website": null,
    "latitude": null,
    "longitude": null,
    "detail_url": "https://www.tudorwatch.com/en/retailers/details/unitedstates",
    "retailer_type": "Official Retailer"
  },
  {
    "name": "London Jewelers",
    "address": "47 Main Street",
    "city": "Southampton",
    "state": "NY",
    "zip_code": "11968",
    "country": "United States",
    "phone": "+16312874499",
    "website": null,
    "latitude": null,
    "longitude": null,
    "detail_url": "https://www.tudorwatch.com/en/retailers/details/unitedstates",
    "retailer_type": "Official Retailer"
  },
  {
    "name": "Precision Watches",
    "address": "",
    "city": "Lower Gwynedd",
    "state": "PA",
    "zip_code": "19002",
    "country": "United States",
    "phone": "+12153434433",
    "website": null,
    "latitude": null,
    "longitude": null,
    "detail_url": "https://www.tudorwatch.com/en/retailers/details/unitedstates",
    "retailer_type": "Official Retailer"
  },
  {
    "name": "Loring & Company",
    "address": "800 Airport Road",
    "city": "Huntsville",
    "state": "AL",
    "zip_code": "35802",
    "country": "United States",
    "phone": "+12568801909",
    "website": null,
    "latitude": null,
    "longitude": null,
    "detail_url": "https://www.tudorwatch.com/en/retailers/details/unitedstates",
    "retailer_type": "Official Retailer"
  },
  {
    "name": "Mayors Jewelers",
    "address": "4834 River City Drive, St. Johns Town Center",
    "city": "Jacksonville",
    "state": "FL",
    "zip_code": "32246",
    "country": "United States",
    "phone": "+19045641972",
    "website": null,
    "latitude": null,
    "longitude": null,
    "detail_url": "https://www.tudorwatch.com/en/retailers/details/unitedstates",
    "retailer_type": "Official Retailer"
  },
  {
    "name": "Lucido Fine Jewelry",
    "address": "42825 Schoenherr Road",
    "city": "Sterling Heights",
    "state": "MI",
    "zip_code": "42825",
    "country": "United States",
    "phone": "+15869970011",
    "website": null,
    "latitude": null,
    "longitude": null,
    "detail_url": "https://www.tudorwatch.com/en/retailers/details/unitedstates",
    "retailer_type": "Official Retailer"
  },
  {
    "name": "Tivol",
    "address": "4721 West 119th Street, Hawthorne Plaza",
    "city": "Overland Park",
    "state": "KS",
    "zip_code": "66209",
    "country": "United States",
    "phone": "+19133450200",
    "website": null,
    "latitude": null,
    "longitude": null,
    "detail_url": "https://www.tudorwatch.com/en/retailers/details/unitedstates",
    "retailer_type": "Official Retailer"
  },
  {
    "name": "The 1916 Company",
    "address": "817 Newport Center Drive, Fashion Island",
    "city": "Newport Beach",
    "state": "CA",
    "zip_code": "92660",
    "country": "United States",
    "phone": "+19497219010",
    "website": null,
    "latitude": null,
    "longitude": null,
    "detail_url": "https://www.tudorwatch.com/en/retailers/details/unitedstates",
    "retailer_type": "Official Retailer"
  },
  {
    "name": "Paul Medawar Fine Jewelry",
    "address": "",
    "city": "Grand Rapids",
    "state": "MI",
    "zip_code": "49525",
    "country": "United States",
    "phone": "+16163634902",
    "website": null,
    "latitude": null,
    "longitude": null,
    "detail_url": "https://www.tudorwatch.com/en/retailers/details/unitedstates",
    "retailer_type": "Official Retailer"
  },
  {
    "name": "Horologio",
    "address": "3377 Las Vegas Blvd South #2265",
    "city": "Las Vegas",
    "state": "NV",
    "zip_code": "89109",
    "country": "United States",
    "phone": "+17027330016",
    "website": null,
    "latitude": null,
    "longitude": null,
    "detail_url": "https://www.tudorwatch.com/en/retailers/details/unitedstates",
    "retailer_type": "Official Retailer"
  },
  {
    "name": "Reeds Jewelers",
    "address": "1669 Pittsford Road RT96",
    "city": "Victor",
    "state": "NY",
    "zip_code": "14564",
    "country": "United States",
    "phone": "+15854252316",
    "website": null,
    "latitude": null,
    "longitude": null,
    "detail_url": "https://www.tudorwatch.com/en/retailers/details/unitedstates",
    "retailer_type": "Official Retailer"
  },
  {
    "name": "Watches of Switzerland",
    "address": "3131 Las Vegas Boulevard South, The Esplanade at Wynn Hotel",
    "city": "Las Vegas",
    "state": "NV",
    "zip_code": "89109",
    "country": "United States",
    "phone": "+17027920669",
    "website": null,
    "latitude": null,
    "longitude": null,
    "detail_url": "https://www.tudorwatch.com/en/retailers/details/unitedstates",
    "retailer_type": "Official Retailer"
  },
  {
    "name": "W. Kodak Jewelers",
    "address": "1123 Hudson Street",
    "city": "Hoboken",
    "state": "NJ",
    "zip_code": "07030",
    "country": "United States",
    "phone": "+12017105000",
    "website": null,
    "latitude": null,
    "longitude": null,
    "detail_url": "https://www.tudorwatch.com/en/retailers/details/unitedstates",
    "retailer_type": "Official Retailer"
  },
  {
    "name": "Windsor Jewelers",
    "address": "526 South Stratford Road",
    "city": "Winston-Salem",
    "state": "NC",
    "zip_code": "27103",
    "country": "United States",
    "phone": "+13367211768",
    "website": null,
    "latitude": null,
    "longitude": null,
    "detail_url": "https://www.tudorwatch.com/en/retailers/details/unitedstates",
    "retailer_type": "Official Retailer"
  },
  {
    "name": "Schiffman's Inc.",
    "address": "4040 Finn Way, The Summit at Fritz Farm",
    "city": "Lexington",
    "state": "KY",
    "zip_code": "40517",
    "country": "United States",
    "phone": "+18594562755",
    "website": null,
    "latitude": null,
    "longitude": null,
    "detail_url": "https://www.tudorwatch.com/en/retailers/details/unitedstates",
    "retailer_type": "Official Retailer"
  },
  {
    "name": "Thomas Markle Jewelers",
    "address": "947 Gessner Road, Suite A150",
    "city": "Houston",
    "state": "TX",
    "zip_code": "77024",
    "country": "United States",
    "phone": "+17134657464",
    "website": null,
    "latitude": null,
    "longitude": null,
    "detail_url": "https://www.tudorwatch.com/en/retailers/details/unitedstates",
    "retailer_type": "Official Retailer"
  },
  {
    "name": "Springer's Jewelers",
    "address": "580 Congress Street",
    "city": "Portland",
    "state": "ME",
    "zip_code": "04101",
    "country": "United States",
    "phone": "+12077725404",
    "website": null,
    "latitude": null,
    "longitude": null,
    "detail_url": "https://www.tudorwatch.com/en/retailers/details/unitedstates",
    "retailer_type": "Official Retailer"
  },
  {
    "name": "M.P. Demetre Jewelers",
    "address": "253 King Street",
    "city": "Charleston",
    "state": "SC",
    "zip_code": "29401",
    "country": "United States",
    "phone": "+18437222073",
    "website": null,
    "latitude": null,
    "longitude": null,
    "detail_url": "https://www.tudorwatch.com/en/retailers/details/unitedstates",
    "retailer_type": "Official Retailer"
  },
  {
    "name": "Watches of Switzerland",
    "address": "",
    "city": "Marlton",
    "state": "NJ",
    "zip_code": "08053",
    "country": "United States",
    "phone": "+18569854500",
    "website": null,
    "latitude": null,
    "longitude": null,
    "detail_url": "https://www.tudorwatch.com/en/retailers/details/unitedstates",
    "retailer_type": "Official Retailer"
  },
  {
    "name": "Sissy's Log Cabin",
    "address": "1825 North Grant Street",
    "city": "Little Rock",
    "state": "AR",
    "zip_code": "72207",
    "country": "United States",
    "phone": "+15016630066",
    "website": null,
    "latitude": null,
    "longitude": null,
    "detail_url": "https://www.tudorwatch.com/en/retailers/details/unitedstates",
    "retailer_type": "Official Retailer"
  },
  {
    "name": "William Barthman Jewelers",
    "address": "1118 Kings Highway",
    "city": "Brooklyn",
    "state": "NY",
    "zip_code": "11229",
    "country": "United States",
    "phone": "+17183751818",
    "website": null,
    "latitude": null,
    "longitude": null,
    "detail_url": "https://www.tudorwatch.com/en/retailers/details/unitedstates",
    "retailer_type": "Official Retailer"
  },
  {
    "name": "The 1916 Company",
    "address": "7014 East Camelback Road, Scottsdale Fashion Square",
    "city": "Scottsdale",
    "state": "AZ",
    "zip_code": "85251",
    "country": "United States",
    "phone": "+16026673541",
    "website": null,
    "latitude": null,
    "longitude": null,
    "detail_url": "https://www.tudorwatch.com/en/retailers/details/unitedstates",
    "retailer_type": "Official Retailer"
  },
  {
    "name": "Tiny Jewel Box",
    "address": "1155 Connecticut Avenue NW",
    "city": "Washington",
    "state": "DC",
    "zip_code": "20036",
    "country": "United States",
    "phone": "+12023932747",
    "website": null,
    "latitude": null,
    "longitude": null,
    "detail_url": "https://www.tudorwatch.com/en/retailers/details/unitedstates",
    "retailer_type": "Official Retailer"
  },
  {
    "name": "Exquisite Timepieces",
    "address": "4380 Gulf Shore Boulevard, Suite 800",
    "city": "Naples",
    "state": "FL",
    "zip_code": "34103",
    "country": "United States",
    "phone": null,
    "website": null,
    "latitude": null,
    "longitude": null,
    "detail_url": "https://www.tudorwatch.com/en/retailers/details/unitedstates",
    "retailer_type": "Official Retailer"
  },
  {
    "name": "Weston Jewelers",
    "address": "1 Seminole Way",
    "city": "Hollywood",
    "state": "FL",
    "zip_code": "33314",
    "country": "United States",
    "phone": null,
    "website": null,
    "latitude": null,
    "longitude": null,
    "detail_url": "https://www.tudorwatch.com/en/retailers/details/unitedstates",
    "retailer_type": "Official Retailer"
  },
  {
    "name": "Westime",
    "address": "206 North Rodeo Drive",
    "city": "Beverly Hills",
    "state": "CA",
    "zip_code": "90210",
    "country": "United States",
    "phone": "+13108888880",
    "website": null,
    "latitude": null,
    "longitude": null,
    "detail_url": "https://www.tudorwatch.com/en/retailers/details/unitedstates",
    "retailer_type": "Official Retailer"
  },
  {
    "name": "London Jewelers",
    "address": "2 Main Street",
    "city": "East Hampton",
    "state": "NY",
    "zip_code": "11937",
    "country": "United States",
    "phone": "+16313293939",
    "website": null,
    "latitude": null,
    "longitude": null,
    "detail_url": "https://www.tudorwatch.com/en/retailers/details/unitedstates",
    "retailer_type": "Official Retailer"
  },
  {
    "name": "Weston Jewelers",
    "address": "1728 Main Street",
    "city": "Weston",
    "state": "FL",
    "zip_code": "33326",
    "country": "United States",
    "phone": "+19543897990",
    "website": null,
    "latitude": null,
    "longitude": null,
    "detail_url": "https://www.tudorwatch.com/en/retailers/details/unitedstates",
    "retailer_type": "Official Retailer"
  },
  {
    "name": "Watches of Switzerland",
    "address": "1 American Dream Way, American Dream Suite E264",
    "city": "East Rutherford",
    "state": "NJ",
    "zip_code": "07073",
    "country": "United States",
    "phone": "+12016210950",
    "website": null,
    "latitude": null,
    "longitude": null,
    "detail_url": "https://www.tudorwatch.com/en/retailers/details/unitedstates",
    "retailer_type": "Official Retailer"
  },
  {
    "name": "Richter & Phillips Jewelers",
    "address": "601 Main Street",
    "city": "Cincinnati",
    "state": "OH",
    "zip_code": "45202",
    "country": "United States",
    "phone": "+15132413510",
    "website": null,
    "latitude": null,
    "longitude": null,
    "detail_url": "https://www.tudorwatch.com/en/retailers/details/unitedstates",
    "retailer_type": "Official Retailer"
  },
  {
    "name": "The 1916 Company",
    "address": "1819 Reisterstown Road",
    "city": "Baltimore",
    "state": "MD",
    "zip_code": "21208",
    "country": "United States",
    "phone": "+14104842900",
    "website": null,
    "latitude": null,
    "longitude": null,
    "detail_url": "https://www.tudorwatch.com/en/retailers/details/unitedstates",
    "retailer_type": "Official Retailer"
  },
  {
    "name": "Meierotto Jewelers",
    "address": "1900 Diamond Parkway",
    "city": "North Kansas City",
    "state": "MO",
    "zip_code": "64116",
    "country": "United States",
    "phone": "+18164531111",
    "website": null,
    "latitude": null,
    "longitude": null,
    "detail_url": "https://www.tudorwatch.com/en/retailers/details/unitedstates",
    "retailer_type": "Official Retailer"
  },
  {
    "name": "Sylvan's Jewelers",
    "address": "800 Gervais Street",
    "city": "Columbia",
    "state": "SC",
    "zip_code": "29201",
    "country": "United States",
    "phone": "+18037792250",
    "website": null,
    "latitude": null,
    "longitude": null,
    "detail_url": "https://www.tudorwatch.com/en/retailers/details/unitedstates",
    "retailer_type": "Official Retailer"
  },
  {
    "name": "Feldmar Watch Company",
    "address": "9000 West Pico Boulevard",
    "city": "Los Angeles",
    "state": "CA",
    "zip_code": "90035",
    "country": "United States",
    "phone": "+13102748016",
    "website": null,
    "latitude": null,
    "longitude": null,
    "detail_url": "https://www.tudorwatch.com/en/retailers/details/unitedstates",
    "retailer_type": "Official Retailer"
  },
  {
    "name": "Watches of Switzerland",
    "address": "136 West Market, Mall of America",
    "city": "Bloomington",
    "state": "MN",
    "zip_code": "55425",
    "country": "United States",
    "phone": "+19529243020",
    "website": null,
    "latitude": null,
    "longitude": null,
    "detail_url": "https://www.tudorwatch.com/en/retailers/details/unitedstates",
    "retailer_type": "Official Retailer"
  },
  {
    "name": "de Boulle Diamond & Jewelry",
    "address": "6821 Preston Road",
    "city": "Dallas",
    "state": "TX",
    "zip_code": "75205",
    "country": "United States",
    "phone": "+12145222400",
    "website": null,
    "latitude": null,
    "longitude": null,
    "detail_url": "https://www.tudorwatch.com/en/retailers/details/unitedstates",
    "retailer_type": "Official Retailer"
  },
  {
    "name": "London Jewelers",
    "address": "",
    "city": "Short Hills",
    "state": "NJ",
    "zip_code": "07078",
    "country": "United States",
    "phone": null,
    "website": null,
    "latitude": null,
    "longitude": null,
    "detail_url": "https://www.tudorwatch.com/en/retailers/details/unitedstates",
    "retailer_type": "Official Retailer"
  },
  {
    "name": "Persin & Robbin Jewelers",
    "address": "783 West Lake Cook Road",
    "city": "Deer Park",
    "state": "IL",
    "zip_code": "60074",
    "country": "United States",
    "phone": "+18472537900",
    "website": null,
    "latitude": null,
    "longitude": null,
    "detail_url": "https://www.tudorwatch.com/en/retailers/details/unitedstates",
    "retailer_type": "Official Retailer"
  },
  {
    "name": "Perrywinkle's Fine Jewelry",
    "address": "227 Main Street",
    "city": "Burlington",
    "state": "VT",
    "zip_code": "05401",
    "country": "United States",
    "phone": "+18028652624",
    "website": null,
    "latitude": null,
    "longitude": null,
    "detail_url": "https://www.tudorwatch.com/en/retailers/details/unitedstates",
    "retailer_type": "Official Retailer"
  },
  {
    "name": "Ben Bridge Jeweler",
    "address": "1450 Ala Moana Boulevard, Ala Moana Shopping Center",
    "city": "Honolulu",
    "state": "HI",
    "zip_code": "96814",
    "country": "United States",
    "phone": "+18089515600",
    "website": null,
    "latitude": null,
    "longitude": null,
    "detail_url": "https://www.tudorwatch.com/en/retailers/details/unitedstates",
    "retailer_type": "Official Retailer"
  },
  {
    "name": "Skeies Jewelers",
    "address": "10 Oakway Center",
    "city": "Eugene",
    "state": "OR",
    "zip_code": "97401",
    "country": "United States",
    "phone": "+15413450354",
    "website": null,
    "latitude": null,
    "longitude": null,
    "detail_url": "https://www.tudorwatch.com/en/retailers/details/unitedstates",
    "retailer_type": "Official Retailer"
  },
  {
    "name": "Reeds Jewelers",
    "address": "7701 South Staples Street",
    "city": "Corpus Christi",
    "state": "TX",
    "zip_code": "78413",
    "country": "United States",
    "phone": "+13619858536",
    "website": null,
    "latitude": null,
    "longitude": null,
    "detail_url": "https://www.tudorwatch.com/en/retailers/details/unitedstates",
    "retailer_type": "Official Retailer"
  },
  {
    "name": "Shreve & Co.",
    "address": "329 El Camino Real, Stanford Shopping Center",
    "city": "Palo Alto",
    "state": "CA",
    "zip_code": "94304",
    "country": "United States",
    "phone": "+16503272211",
    "website": null,
    "latitude": null,
    "longitude": null,
    "detail_url": "https://www.tudorwatch.com/en/retailers/details/unitedstates",
    "retailer_type": "Official Retailer"
  },
  {
    "name": "The 1916 Company",
    "address": "115 Christiana Mall",
    "city": "Newark",
    "state": "DE",
    "zip_code": "19702",
    "country": "United States",
    "phone": "+13024440440",
    "website": null,
    "latitude": null,
    "longitude": null,
    "detail_url": "https://www.tudorwatch.com/en/retailers/details/unitedstates",
    "retailer_type": "Official Retailer"
  },
  {
    "name": "Schwarzschild Jewelers",
    "address": "3520-3532 West Carry Street, Building A",
    "city": "Richmond",
    "state": "VA",
    "zip_code": "23221",
    "country": "United States",
    "phone": null,
    "website": null,
    "latitude": null,
    "longitude": null,
    "detail_url": "https://www.tudorwatch.com/en/retailers/details/unitedstates",
    "retailer_type": "Official Retailer"
  },
  {
    "name": "Tudor Boutique Ben Bridge",
    "address": "2300 Kalakaua Avenue",
    "city": "Honolulu",
    "state": "HI",
    "zip_code": "96815",
    "country": "United States",
    "phone": "+18088304992",
    "website": null,
    "latitude": null,
    "longitude": null,
    "detail_url": "https://www.tudorwatch.com/en/retailers/details/unitedstates",
    "retailer_type": "Tudor Boutique Edition"
  }
]